{
"type": "FeatureCollection",
"name": "conference_locations",
"crs": { "type": "name", "properties": { "name": "urn:ogc:def:crs:OGC:1.3:CRS84" } },
"features": [
{ "type": "Feature", "properties": { "location_name": "Beach Cat South Paw", "info_box": "Friday Stroll & Friday Social", "osm_link": null, "label": "Meetup Spot", "category": "beer", "order": 1, "day": "Pre Conference", "category2": "social" }, "geometry": { "type": "Point", "coordinates": [ -122.48652277124792, 48.752185646510128 ] } },
{ "type": "Feature", "properties": { "location_name": "Zuanich Park", "info_box": "", "osm_link": "https://www.openstreetmap.org/way/43147495", "label": "Stroll to Here", "category": "park", "order": 1, "day": "Pre Conference", "category2": "social" }, "geometry": { "type": "Point", "coordinates": [ -122.500359, 48.754732 ] } },
{ "type": "Feature", "properties": { "location_name": "Grouchy's Diner", "info_box": "Our day kicks off with the Saturday Breakfast on April 25th from 7:00am to 9:00am at Grouchy's Diner (formerly Diamond Jim's Grill). Prepare for the day of shared learning and socializing with a full stomach!", "osm_link": "https://www.openstreetmap.org/node/11244219781", "label": "Breakfast", "category": "restaurant", "order": 2, "day": "Breakfast", "category2": "social" }, "geometry": { "type": "Point", "coordinates": [ -122.485935754505022, 48.762058680552059 ] } },
{ "type": "Feature", "properties": { "location_name": "Campus Center", "info_box": "", "osm_link": "https://www.openstreetmap.org/way/413167341", "label": "Talks", "category": "college", "order": 4, "day": "Conference", "category2": "conf" }, "geometry": { "type": "Point", "coordinates": [ -122.510538825773551, 48.765552613526083 ] } },
{ "type": "Feature", "properties": { "location_name": "Haskell Center", "info_box": "", "osm_link": "https://www.openstreetmap.org/way/111555489", "label": "Talks", "category": "college", "order": 4, "day": "Conference", "category2": "conf" }, "geometry": { "type": "Point", "coordinates": [ -122.510322896613943, 48.76501379781412 ] } },
{ "type": "Feature", "properties": { "location_name": "G Building", "info_box": "", "osm_link": "https://www.openstreetmap.org/way/411493247", "label": "Expo Hall", "category": "college", "order": 4, "day": "Conference", "category2": "conf" }, "geometry": { "type": "Point", "coordinates": [ -122.509973297022214, 48.765369620158978 ] } },
{ "type": "Feature", "properties": { "location_name": "Brandywine Kitchen", "info_box": null, "osm_link": "https://www.openstreetmap.org/node/4770370443", "label": "Dinner", "category": "restaurant", "order": 6, "day": "Dinner", "category2": "social" }, "geometry": { "type": "Point", "coordinates": [ -122.479601832490047, 48.751063575436092 ] } },
{ "type": "Feature", "properties": { "location_name": "Food Trucks", "info_box": "Enjoy cuisine from local food trucks or a complimentary Hot Dog Lunch provided by System76 in the parking lot!", "osm_link": "https://www.openstreetmap.org/way/411493256", "label": "Lunch", "category": "restaurant", "order": 5, "day": "Conference", "category2": "social" }, "geometry": { "type": "Point", "coordinates": [ -122.508758048177711, 48.765056509270721 ] } }
]
}
