{
"type": "FeatureCollection",
"name": "conference_locations",
"crs": { "type": "name", "properties": { "name": "urn:ogc:def:crs:OGC:1.3:CRS84" } },
"features": [
{ "type": "Feature", "properties": { "location_name": "Beach Cat South Paw", "info_box": "Following the Friday Stroll, we continue LFNW 2026 with the Friday Social on April 24th from 5pm-10pm at Beach Cat Brewery's South Paw location in Bellingham. This year we are merging the Social and Game Night into a single location! We'll have some games organized, Beach Cat has some pub games onsite, and feel free to bring your own games. No host. Full Dinner Menu Available via Food Trucks onsite.", "osm_link": null, "label": "Friday Events" }, "geometry": { "type": "Point", "coordinates": [ -122.48652277124792, 48.752185646510128 ] } },
{ "type": "Feature", "properties": { "location_name": "Zuanich Park", "info_box": "", "osm_link": "https://www.openstreetmap.org/way/43147495", "label": "End Friday Stroll" }, "geometry": { "type": "Point", "coordinates": [ -122.500359, 48.754732 ] } },
{ "type": "Feature", "properties": { "location_name": "Grouchy's Diner", "info_box": "Our day kicks off with the Saturday Breakfast on April 25th from 7:00am to 9:00am at Grouchy's Diner (formerly Diamond Jim's Grill). Prepare for the day of shared learning and socializing with a full stomach!", "osm_link": "https://www.openstreetmap.org/node/11244219781", "label": "Saturday Breakfast" }, "geometry": { "type": "Point", "coordinates": [ -122.485935754505022, 48.762058680552059 ] } },
{ "type": "Feature", "properties": { "location_name": "Bellingham Technical College", "info_box": "Welcome to LFNW 2026! Join us for presentations, discussions, and socializing inspired by Open Source Hardware and Software. Free! Saturday Educational Sessions and Expo Hall are hosted at Bellingham Technical College on April 25th from 9:00am to 6:00pm. Note: There is no formal registration process for the LFNW 2026 Educational Sessions and Expo Hall components.", "osm_link": "https://www.openstreetmap.org/way/1155033448", "label": "Enter Here" }, "geometry": { "type": "Point", "coordinates": [ -122.510657072694286, 48.764901967413628 ] } },
{ "type": "Feature", "properties": { "location_name": "Campus Center", "info_box": "", "osm_link": "https://www.openstreetmap.org/way/413167341", "label": "Talks" }, "geometry": { "type": "Point", "coordinates": [ -122.510538825773551, 48.765552613526083 ] } },
{ "type": "Feature", "properties": { "location_name": "Haskell Center", "info_box": "", "osm_link": "https://www.openstreetmap.org/way/111555489", "label": "Talks" }, "geometry": { "type": "Point", "coordinates": [ -122.510322896613943, 48.76501379781412 ] } },
{ "type": "Feature", "properties": { "location_name": "G Building", "info_box": "", "osm_link": "https://www.openstreetmap.org/way/411493247", "label": "Talks" }, "geometry": { "type": "Point", "coordinates": [ -122.509973297022214, 48.765369620158978 ] } },
{ "type": "Feature", "properties": { "location_name": "Food Trucks", "info_box": "", "osm_link": "https://www.openstreetmap.org/way/411493256" }, "geometry": { "type": "Point", "coordinates": [ -122.50869, 48.765038 ] } },
{ "type": "Feature", "properties": { "location_name": "Brandywine Kitchen", "info_box": null, "osm_link": "https://www.openstreetmap.org/node/4770370443", "label": "Saturday Dinner" }, "geometry": { "type": "Point", "coordinates": [ -122.479601832490047, 48.751063575436092 ] } }
]
}
